[
  {
    "Type":"Farmers Market",
    "Name":"American Legion South Lake Tahoe",
    "Street Address":"2732 South Lake Tahoe Blvd.",
    "City":"South Lake Tahoe",
    "State":"CA",
    "Zip":96150,
    "Longitude":38.92944,
    "Latitude":-119.9801,
    "Description":"",
    "Phone":"555-555-1234"
  },
  {
    "Type":"Grocery Store",
    "Name":"Folsom Whole Foods",
    "Street Address":"270 Palladio Pkwy",
    "City":"Folsom",
    "State":"CA",
    "Zip":95630,
    "Longitude":38.6487,
    "Latitude":-121.1184,
    "Description":"",
    "Phone":"555-555-1234"
  },
  {
    "Type":"Farmers Market",
    "Name":"Kings Beach Farmers' Market",
    "Street Address":"Highway 28 & Coon Street",
    "City":"Tahoe City",
    "State":"CA",
    "Zip":96146,
    "Longitude":39.23662,
    "Latitude":-120.02484,
    "Description":"",
    "Phone":"555-555-1234"
  },
  {
    "Type":"Farmers Market",
    "Name":"Rocklin Blue Oaks",
    "Street Address":"6636 Lonetree Boulevard",
    "City":"Rocklin",
    "State":"CA",
    "Zip":95765,
    "Longitude":38.80204,
    "Latitude":-121.296875,
    "Description":"",
    "Phone":"555-555-1234"
  },
  {
    "Type":"Farmers Market",
    "Name":"Capitol Mall",
    "Street Address":"600 Capitol Mall",
    "City":"Sacramento",
    "State":"CA",
    "Zip":95814,
    "Longitude":38.57798,
    "Latitude":-121.499496,
    "Description":"",
    "Phone":"555-555-1234"
  },
  {
    "Type":"Farmers Market",
    "Name":"Chavez Plaza",
    "Street Address":"950 J Street",
    "City":"Sacramento",
    "State":"CA",
    "Zip":95814,
    "Longitude":38.580948,
    "Latitude":-121.493813,
    "Description":"",
    "Phone":"555-555-1234"
  },
  {
    "Type":"Farmers Market",
    "Name":"Country Club Plaza",
    "Street Address":"2400 Butano Drive",
    "City":"Sacramento",
    "State":"CA",
    "Zip":95825,
    "Longitude":38.607983,
    "Latitude":-121.381355,
    "Description":"",
    "Phone":"555-555-1234"
  },
  {
    "Type":"Farmers Market",
    "Name":"Del Paso Heights",
    "Street Address":"3525 Norwood Ave.",
    "City":"Sacramento",
    "State":"CA",
    "Zip":95638,
    "Longitude":38.630165,
    "Latitude":-121.456993,
    "Description":"",
    "Phone":"555-555-1234"
  },
  {
    "Type":"Farmers Market",
    "Name":"Florin Sears Store",
    "Street Address":"5901 Florin Road",
    "City":"Sacramento",
    "State":"CA",
    "Zip":95823,
    "Longitude":38.496342,
    "Latitude":-121.436989,
    "Description":"",
    "Phone":"555-555-1234"
  },
  {
    "Type":"Farmers Market",
    "Name":"Folsom CFM",
    "Street Address":"900 Sutter St",
    "City":"Folsom",
    "State":"CA",
    "Zip":95630,
    "Longitude":38.67672,
    "Latitude":-121.17868,
    "Description":"",
    "Phone":"555-555-1234"
  },
  {
    "Type":"Farmers Market",
    "Name":"Fremont Park",
    "Street Address":"1540 P Street",
    "City":"Sacramento",
    "State":"CA",
    "Zip":95814,
    "Longitude":38.570751,
    "Latitude":-121.488815,
    "Description":"",
    "Phone":"555-555-1234"
  },
  {
    "Type":"Farmers Market",
    "Name":"Laguna Gateway Center",
    "Street Address":"8245 Laguna Boulevard",
    "City":"Elk Grove",
    "State":"CA",
    "Zip":95758,
    "Longitude":38.421066,
    "Latitude":-121.405838,
    "Description":"",
    "Phone":"555-555-1234"
  },
  {
    "Type":"Farmers Market",
    "Name":"Oak Park",
    "Street Address":"3500 5th Avenue",
    "City":"Sacramento",
    "State":"CA",
    "Zip":95817,
    "Longitude":38.548668,
    "Latitude":-121.469696,
    "Description":"",
    "Phone":"555-555-1234"
  },
  {
    "Type":"Farmers Market",
    "Name":"Pointe West Kaiser Permanent",
    "Street Address":"1650 Response Road",
    "City":"Sacramento",
    "State":"CA",
    "Zip":95815,
    "Longitude":38.5963,
    "Latitude":-121.4295,
    "Description":"",
    "Phone":"555-555-1234"
  },
  {
    "Type":"Farmers Market",
    "Name":"The Promenade",
    "Street Address":"3637 N Freeway Blvd",
    "City":"Sacramento",
    "State":"CA",
    "Zip":95834,
    "Longitude":38.6393,
    "Latitude":-121.49649,
    "Description":"",
    "Phone":"555-555-1234"
  },
  {
    "Type":"Farmers Market",
    "Name":"Roosevelt Park",
    "Street Address":"940 P Street",
    "City":"Sacramento",
    "State":"CA",
    "Zip":95814,
    "Longitude":38.573418,
    "Latitude":-121.497414,
    "Description":"",
    "Phone":"555-555-1234"
  },
  {
    "Type":"Farmers Market",
    "Name":"State Parking Lot",
    "Street Address":"800 W Street",
    "City":"Sacramento",
    "State":"CA",
    "Zip":95818,
    "Longitude":38.566105,
    "Latitude":-121.502586,
    "Description":"",
    "Phone":"555-555-1234"
  },
  {
    "Type":"Farmers Market",
    "Name":"Sunrise Station",
    "Street Address":"11164 Folsom Blvd",
    "City":"Rancho Cordova",
    "State":"CA",
    "Zip":95742,
    "Longitude":38.604881,
    "Latitude":-121.268311,
    "Description":"",
    "Phone":"555-555-1234"
  },
  {
    "Type":"Farmers Market",
    "Name":"Davis Picnic in the Park",
    "Street Address":"4th and C Street",
    "City":"Davis",
    "State":"CA",
    "Zip":95616,
    "Longitude":38.545597,
    "Latitude":-121.744461,
    "Description":"",
    "Phone":"555-555-1234"
  },
  {
    "Type":"Farmers Market",
    "Name":"Sutter Davis Hospital",
    "Street Address":"2000 Sutter Place",
    "City":"Davis",
    "State":"CA",
    "Zip":95616,
    "Longitude":38.56239,
    "Latitude":-121.7721,
    "Description":"",
    "Phone":"555-555-1234"
  },
  {
    "Type":"Farmers Market",
    "Name":"University of California at Davis",
    "Street Address":"1 Shields Avenue",
    "City":"Davis",
    "State":"CA",
    "Zip":95616,
    "Longitude":38.53896,
    "Latitude":-121.75301,
    "Description":"",
    "Phone":"555-555-1234"
  },
  {
    "Type":"Farmers Market",
    "Name":"Woodland Healthcare",
    "Street Address":"1325 Cottonwood Street",
    "City":"Woodland",
    "State":"CA",
    "Zip":95695,
    "Longitude":38.66375,
    "Latitude":-121.79227,
    "Description":"",
    "Phone":"555-555-1234"
  },
  {
    "Type":"Farmers Market",
    "Name":"Sacramento Kaiser",
    "Street Address":"2025 Morse Avenue",
    "City":"Sacramento",
    "State":"CA",
    "Zip":95825,
    "Longitude":38.603271,
    "Latitude":-121.392189,
    "Description":"",
    "Phone":"555-555-1234"
  },
  {
    "Type":"Restaurants",
    "Name":"Hot Italian",
    "Street Address":"1627 16th Street",
    "City":"Sacramento",
    "State":"CA",
    "Zip":95814,
    "Longitude":38.5705703,
    "Latitude":-121.488243,
    "Description":"",
    "Phone":"555-555-1234"
  },
  {
    "Type":"Restaurants",
    "Name":"The Kitchen",
    "Street Address":"2225 Hurley Way",
    "City":"Sacramento",
    "State":"CA",
    "Zip":95825,
    "Longitude":38.5892849,
    "Latitude":-121.414137,
    "Description":"",
    "Phone":"555-555-1234"
  },
  {
    "Type":"Restaurants",
    "Name":"Ten 22",
    "Street Address":"1022 2nd Street",
    "City":"Sacramento",
    "State":"CA",
    "Zip":95814,
    "Longitude":38.5826196,
    "Latitude":-121.5046318,
    "Description":"",
    "Phone":"555-555-1234"
  },
  {
    "Type":"Restaurants",
    "Name":"Magpie",
    "Street Address":"1409 R Strret",
    "City":"Sacramento",
    "State":"CA",
    "Zip":95811,
    "Longitude":38.5700828,
    "Latitude":-121.4912672,
    "Description":"",
    "Phone":"555-555-1234"
  },
  {
    "Type":"Restaurants",
    "Name":"Hook and Lader",
    "Street Address":"1630 S Street",
    "City":"Sacramento",
    "State":"CA",
    "Zip":95811,
    "Longitude":38.5677233,
    "Latitude":-121.4885314,
    "Description":"",
    "Phone":"555-555-1234"
  },
  {
    "Type":"Restaurants",
    "Name":"Selland's Market Place",
    "Street Address":"5340 H Street",
    "City":"Sacramento",
    "State":"CA",
    "Zip":95819,
    "Longitude":38.567817,
    "Latitude":-121.436618,
    "Description":"",
    "Phone":"555-555-1234"
  },
  {
    "Type":"Restaurants",
    "Name":"Red Rabiit",
    "Street Address":"2718 J Street",
    "City":"Sacramento",
    "State":"CA",
    "Zip":95816,
    "Longitude":38.5736309,
    "Latitude":-121.470021,
    "Description":"",
    "Phone":"555-555-1234"
  },
  {
    "Type":"Restaurants",
    "Name":"Kru",
    "Street Address":"2516 J Street",
    "City":"Sacramento",
    "State":"CA",
    "Zip":95816,
    "Longitude":38.5744728,
    "Latitude":-121.4725913,
    "Description":"Contemporary Japanese cuisine by local accomplished chef, Billy Ngo.",
    "Phone":"555-555-1234"
  },
  {
    "Type":"Restaurants",
    "Name":"Centro",
    "Street Address":"2730 J Street",
    "City":"Sacramento",
    "State":"CA",
    "Zip":95816,
    "Longitude":38.5736813,
    "Latitude":-121.4695297,
    "Description":"An extensive Mexican menu in a trendy downtown atmosphere.",
    "Phone":"555-555-1234"
  },
  {
    "Type":"Restaurants",
    "Name":"Enotria",
    "Street Address":"1431 Del Paso Blvd.",
    "City":"Sacramento",
    "State":"CA",
    "Zip":95815,
    "Longitude":38.6060774,
    "Latitude":-121.4598759,
    "Description":"Upscale fine-dining restaurant and wine bar that has won rave reviews for its modernist cuisine.",
    "Phone":"555-555-1234"
  },
  {
    "Type":"Restaurants",
    "Name":"Grange",
    "Street Address":"926 J Street",
    "City":"Sacramento",
    "State":"CA",
    "Zip":95814,
    "Longitude":38.5801413,
    "Latitude":-121.4938701,
    "Description":"Great ambiance, cool bar and great presentation.",
    "Phone":"555-555-1234"
  },
  {
    "Type":"Restaurants",
    "Name":"Restaurant Thir13en",
    "Street Address":"1300 H Street",
    "City":"Sacramento",
    "State":"CA",
    "Zip":95814,
    "Longitude":38.580976,
    "Latitude":-121.488131,
    "Description":"Intimate, cozy atmosphere serving locally-sourced produce and meat.",
    "Phone":"555-555-1234"
  },
  {
    "Type":"Restaurants",
    "Name":"Blackbird",
    "Street Address":"1015 9th Street",
    "City":"Sacramento",
    "State":"CA",
    "Zip":85816,
    "Longitude":38.5801872,
    "Latitude":-121.4949931,
    "Description":"",
    "Phone":"555-555-1234"
  },
  {
    "Type":"Restaurants",
    "Name":"Ella",
    "Street Address":"1131 K Street",
    "City":"Sacramento",
    "State":"CA",
    "Zip":95814,
    "Longitude":38.57888,
    "Latitude":-121.491408,
    "Description":"",
    "Phone":"555-555-1234"
  },
  {
    "Type":"Restaurants",
    "Name":"Lucca Restaurant and Bar",
    "Street Address":"1615 J Street",
    "City":"Sacramento",
    "State":"CA",
    "Zip":95814,
    "Longitude":38.5780753,
    "Latitude":-121.4844454,
    "Description":"",
    "Phone":"555-555-1234"
  },
  {
    "Type":"Restaurants",
    "Name":"The Porch",
    "Street Address":"1815 K Street",
    "City":"Sacramento",
    "State":"CA",
    "Zip":95814,
    "Longitude":38.5765546,
    "Latitude":-121.4822439,
    "Description":"",
    "Phone":"555-555-1234"
  },
  {
    "Type":"Restaurants",
    "Name":"Maranello",
    "Street Address":"8928 Sunset Ave",
    "City":"Fair Oaks, CA",
    "State":"CA",
    "Zip":95628,
    "Longitude":38.652847,
    "Latitude":-121.2242972,
    "Description":"",
    "Phone":"555-555-1234"
  }
]
